{
"type": "FeatureCollection",
"name": "searched_2021",
"crs": { "type": "name", "properties": { "name": "urn:ogc:def:crs:OGC:1.3:CRS84" } },
"features": [
{ "type": "Feature", "properties": { "objectid": 104253, "address": "200-BLK SMOKEY PARK HWY", "YYYY_MM": "2021-01-01", "name_race_2": "B", "objectid_2": 104253, "driver_searched": "1" }, "geometry": { "type": "Point", "coordinates": [ -82.636383201585744, 35.56141431417614 ] } },
{ "type": "Feature", "properties": { "objectid": 104257, "address": "200-BLK AMBOY RD", "YYYY_MM": "2021-01-01", "name_race_2": "W", "objectid_2": 104257, "driver_searched": "1" }, "geometry": { "type": "Point", "coordinates": [ -82.573813631197496, 35.567090317690017 ] } },
{ "type": "Feature", "properties": { "objectid": 104292, "address": "1000-BLK HAYWOOD RD", "YYYY_MM": "2021-02-01", "name_race_2": "B", "objectid_2": 104292, "driver_searched": "1" }, "geometry": { "type": "Point", "coordinates": [ -82.605842960193428, 35.582761439168202 ] } },
{ "type": "Feature", "properties": { "objectid": 104135, "address": "100-BLK MCKENNA RD", "YYYY_MM": "2021-01-01", "name_race_2": "W", "objectid_2": 104135, "driver_searched": "1" }, "geometry": { "type": "Point", "coordinates": [ -82.53499769680711, 35.44737171650641 ] } },
{ "type": "Feature", "properties": { "objectid": 104131, "address": "300-BLK SMOKEY PARK HWY", "YYYY_MM": "2021-01-01", "name_race_2": "W", "objectid_2": 104131, "driver_searched": "1" }, "geometry": { "type": "Point", "coordinates": [ -82.63669636933264, 35.560404539287198 ] } },
{ "type": "Feature", "properties": { "objectid": 104130, "address": "100-BLK HENDERSONVILLE RD", "YYYY_MM": "2021-01-01", "name_race_2": "W", "objectid_2": 104130, "driver_searched": "1" }, "geometry": { "type": "Point", "coordinates": [ -82.544202104663256, 35.568121962507192 ] } },
{ "type": "Feature", "properties": { "objectid": 104113, "address": "200-BLK BROADWAY ST", "YYYY_MM": "2021-01-01", "name_race_2": "W", "objectid_2": 104113, "driver_searched": "1" }, "geometry": { "type": "Point", "coordinates": [ -82.556599588397987, 35.602375289508011 ] } },
{ "type": "Feature", "properties": { "objectid": 104171, "address": "100-BLK DOGWOOD CT", "YYYY_MM": "2021-01-01", "name_race_2": "W", "objectid_2": 104171, "driver_searched": "1" }, "geometry": { "type": "Point", "coordinates": [ -82.512340897586128, 35.5834502081605 ] } },
{ "type": "Feature", "properties": { "objectid": 104143, "address": "100-BLK KENMORE ST", "YYYY_MM": "2021-01-01", "name_race_2": "B", "objectid_2": 104143, "driver_searched": "1" }, "geometry": { "type": "Point", "coordinates": [ -82.511893793267987, 35.560280989036137 ] } },
{ "type": "Feature", "properties": { "objectid": 104200, "address": "100-BLK I240 E", "YYYY_MM": "2021-01-01", "name_race_2": "W", "objectid_2": 104200, "driver_searched": "1" }, "geometry": { "type": "Point", "coordinates": [ -82.527961996544661, 35.589996153184877 ] } },
{ "type": "Feature", "properties": { "objectid": 104193, "address": "100-BLK LODGE ST", "YYYY_MM": "2021-01-01", "name_race_2": "B", "objectid_2": 104193, "driver_searched": "1" }, "geometry": { "type": "Point", "coordinates": [ -82.545145390420259, 35.566930622159703 ] } },
{ "type": "Feature", "properties": { "objectid": 104037, "address": "100-BLK CHUNNS COVE RD", "YYYY_MM": "2021-01-01", "name_race_2": "W", "objectid_2": 104037, "driver_searched": "1" }, "geometry": { "type": "Point", "coordinates": [ -82.530868495535572, 35.596764145769058 ] } },
{ "type": "Feature", "properties": { "objectid": 104066, "address": "100-BLK SCHOOL RD E", "YYYY_MM": "2021-01-01", "name_race_2": "W", "objectid_2": 104066, "driver_searched": "1" }, "geometry": { "type": "Point", "coordinates": [ -82.511421056879627, 35.559943982540709 ] } },
{ "type": "Feature", "properties": { "objectid": 104096, "address": "200-BLK S FRENCH BROAD AVE", "YYYY_MM": "2021-01-01", "name_race_2": "W", "objectid_2": 104096, "driver_searched": "1" }, "geometry": { "type": "Point", "coordinates": [ -82.559630275971912, 35.58453736525145 ] } },
{ "type": "Feature", "properties": { "objectid": 103964, "address": "100-BLK E CHESTNUT ST", "YYYY_MM": "2021-01-01", "name_race_2": "W", "objectid_2": 103964, "driver_searched": "1" }, "geometry": { "type": "Point", "coordinates": [ -82.553295947422185, 35.602895382878692 ] } },
{ "type": "Feature", "properties": { "objectid": 103969, "address": "100-BLK SMOKEY PARK HWY", "YYYY_MM": "2021-01-01", "name_race_2": "W", "objectid_2": 103969, "driver_searched": "1" }, "geometry": { "type": "Point", "coordinates": [ -82.630459180246035, 35.567054986550531 ] } },
{ "type": "Feature", "properties": { "objectid": 103987, "address": "100-BLK EDGEWOOD RD/MERRIMON AVE", "YYYY_MM": "2021-01-01", "name_race_2": "B", "objectid_2": 103987, "driver_searched": "1" }, "geometry": { "type": "Point", "coordinates": [ -82.554301055438287, 35.620023002917058 ] } },
{ "type": "Feature", "properties": { "objectid": 103973, "address": "100-BLK SKY EXCHANGE DR", "YYYY_MM": "2021-01-01", "name_race_2": "W", "objectid_2": 103973, "driver_searched": "1" }, "geometry": { "type": "Point", "coordinates": [ -82.531983567950206, 35.485273066246698 ] } },
{ "type": "Feature", "properties": { "objectid": 105170, "address": "100-BLK MARTIN LUTHER KING JR DR", "YYYY_MM": "2021-04-01", "name_race_2": "W", "objectid_2": 105170, "driver_searched": "1" }, "geometry": { "type": "Point", "coordinates": [ -82.544949857191284, 35.591821072274598 ] } },
{ "type": "Feature", "properties": { "objectid": 105157, "address": "100-BLK SWEETEN CREEK RD", "YYYY_MM": "2021-04-01", "name_race_2": "B", "objectid_2": 105157, "driver_searched": "1" }, "geometry": { "type": "Point", "coordinates": [ -82.519895853119365, 35.553169044794814 ] } },
{ "type": "Feature", "properties": { "objectid": 105152, "address": "200-BLK S FRENCH BROAD AVE", "YYYY_MM": "2021-03-01", "name_race_2": "B", "objectid_2": 105152, "driver_searched": "1" }, "geometry": { "type": "Point", "coordinates": [ -82.559693571058247, 35.583673716682149 ] } },
{ "type": "Feature", "properties": { "objectid": 105189, "address": "300-BLK SWANNANOA RIVER RD", "YYYY_MM": "2021-04-01", "name_race_2": "B", "objectid_2": 105189, "driver_searched": "1" }, "geometry": { "type": "Point", "coordinates": [ -82.517167561829851, 35.579035331912443 ] } },
{ "type": "Feature", "properties": { "objectid": 105228, "address": "100-BLK MCDOWELL ST/CHOCTAW ST", "YYYY_MM": "2021-04-01", "name_race_2": "B", "objectid_2": 105228, "driver_searched": "1" }, "geometry": { "type": "Point", "coordinates": [ -82.553905529295989, 35.581863372883888 ] } },
{ "type": "Feature", "properties": { "objectid": 105222, "address": "100-BLK PATTON AVE/N LEXINGTON AVE", "YYYY_MM": "2021-04-01", "name_race_2": "B", "objectid_2": 105222, "driver_searched": "1" }, "geometry": { "type": "Point", "coordinates": [ -82.552704689554162, 35.595214660106656 ] } },
{ "type": "Feature", "properties": { "objectid": 105211, "address": "100-BLK S FRENCH BROAD AVE", "YYYY_MM": "2021-04-01", "name_race_2": "B", "objectid_2": 105211, "driver_searched": "1" }, "geometry": { "type": "Point", "coordinates": [ -82.560037349312779, 35.58784403796129 ] } },
{ "type": "Feature", "properties": { "objectid": 105229, "address": "100-BLK I240 E", "YYYY_MM": "2021-04-01", "name_race_2": "W", "objectid_2": 105229, "driver_searched": "1" }, "geometry": { "type": "Point", "coordinates": [ -82.581154665818573, 35.587147404472155 ] } },
{ "type": "Feature", "properties": { "objectid": 105027, "address": "400-BLK I40 W", "YYYY_MM": "2021-04-01", "name_race_2": "W", "objectid_2": 105027, "driver_searched": "1" }, "geometry": { "type": "Point", "coordinates": [ -82.627532677429571, 35.557688563602902 ] } },
{ "type": "Feature", "properties": { "objectid": 105066, "address": "300-BLK BROOKLYN RD/W CHAPEL RD", "YYYY_MM": "2021-04-01", "name_race_2": "B", "objectid_2": 105066, "driver_searched": "1" }, "geometry": { "type": "Point", "coordinates": [ -82.529440527176533, 35.550736045652272 ] } },
{ "type": "Feature", "properties": { "objectid": 105121, "address": "100-BLK WATERS RD", "YYYY_MM": "2021-04-01", "name_race_2": "B", "objectid_2": 105121, "driver_searched": "1" }, "geometry": { "type": "Point", "coordinates": [ -82.517223075038913, 35.590790909873164 ] } },
{ "type": "Feature", "properties": { "objectid": 105116, "address": "1900-BLK OLD HAYWOOD RD", "YYYY_MM": "2021-04-01", "name_race_2": "W", "objectid_2": 105116, "driver_searched": "1" }, "geometry": { "type": "Point", "coordinates": [ -82.63327668276672, 35.565089979504997 ] } },
{ "type": "Feature", "properties": { "objectid": 104921, "address": "300-BLK LONG SHOALS RD", "YYYY_MM": "2021-03-01", "name_race_2": "B", "objectid_2": 104921, "driver_searched": "1" }, "geometry": { "type": "Point", "coordinates": [ -82.549657487772976, 35.480601791242002 ] } },
{ "type": "Feature", "properties": { "objectid": 104969, "address": "700-BLK FAIRVIEW RD", "YYYY_MM": "2021-04-01", "name_race_2": "W", "objectid_2": 104969, "driver_searched": "1" }, "geometry": { "type": "Point", "coordinates": [ -82.511920068958275, 35.564896678987914 ] } },
{ "type": "Feature", "properties": { "objectid": 105008, "address": "1200-BLK SWEETEN CREEK RD", "YYYY_MM": "2021-04-01", "name_race_2": "B", "objectid_2": 105008, "driver_searched": "1" }, "geometry": { "type": "Point", "coordinates": [ -82.520703538228588, 35.537399198313054 ] } },
{ "type": "Feature", "properties": { "objectid": 105005, "address": "1900-BLK HENDERSONVILLE RD", "YYYY_MM": "2021-04-01", "name_race_2": "W", "objectid_2": 105005, "driver_searched": "1" }, "geometry": { "type": "Point", "coordinates": [ -82.524492538317048, 35.488279900826981 ] } },
{ "type": "Feature", "properties": { "objectid": 104820, "address": "100-BLK CROWELL RD", "YYYY_MM": "2021-03-01", "name_race_2": "W", "objectid_2": 104820, "driver_searched": "1" }, "geometry": { "type": "Point", "coordinates": [ -82.637642826867406, 35.561422924674602 ] } },
{ "type": "Feature", "properties": { "objectid": 104683, "address": "100-BLK OAKLAND RD/ERSKINE AVE", "YYYY_MM": "2021-03-01", "name_race_2": "B", "objectid_2": 104683, "driver_searched": "1" }, "geometry": { "type": "Point", "coordinates": [ -82.556585023389417, 35.573631870404256 ] } },
{ "type": "Feature", "properties": { "objectid": 104720, "address": "1700-BLK PATTON AVE/SMOKEY PARK HWY", "YYYY_MM": "2021-03-01", "name_race_2": "W", "objectid_2": 104720, "driver_searched": "1" }, "geometry": { "type": "Point", "coordinates": [ -82.620718470105913, 35.570083651092105 ] } },
{ "type": "Feature", "properties": { "objectid": 104745, "address": "100-BLK COURTLAND AVE/PEARSON DR", "YYYY_MM": "2021-03-01", "name_race_2": "B", "objectid_2": 104745, "driver_searched": "1" }, "geometry": { "type": "Point", "coordinates": [ -82.564705511903838, 35.599111349594402 ] } },
{ "type": "Feature", "properties": { "objectid": 104744, "address": "200-BLK SWEETEN CREEK INDUSTRIAL PARK", "YYYY_MM": "2021-03-01", "name_race_2": "B", "objectid_2": 104744, "driver_searched": "1" }, "geometry": { "type": "Point", "coordinates": [ -82.522700504018218, 35.548648400227435 ] } },
{ "type": "Feature", "properties": { "objectid": 104740, "address": "200-BLK TUNNEL RD", "YYYY_MM": "2021-03-01", "name_race_2": "W", "objectid_2": 104740, "driver_searched": "1" }, "geometry": { "type": "Point", "coordinates": [ -82.52823419007558, 35.585125151848935 ] } },
{ "type": "Feature", "properties": { "objectid": 104737, "address": "100-BLK HILL ST/GUDGER ST", "YYYY_MM": "2021-03-01", "name_race_2": "B", "objectid_2": 104737, "driver_searched": "1" }, "geometry": { "type": "Point", "coordinates": [ -82.561603176848607, 35.596071146819682 ] } },
{ "type": "Feature", "properties": { "objectid": 104780, "address": "300-BLK KENILWORTH RD", "YYYY_MM": "2021-03-01", "name_race_2": "W", "objectid_2": 104780, "driver_searched": "1" }, "geometry": { "type": "Point", "coordinates": [ -82.535562041833998, 35.584288508797798 ] } },
{ "type": "Feature", "properties": { "objectid": 104761, "address": "100-BLK AVON RD", "YYYY_MM": "2021-03-01", "name_race_2": "B", "objectid_2": 104761, "driver_searched": "1" }, "geometry": { "type": "Point", "coordinates": [ -82.503993295075389, 35.591037612454876 ] } },
{ "type": "Feature", "properties": { "objectid": 104597, "address": "400-BLK DEPOT ST", "YYYY_MM": "2021-03-01", "name_race_2": "B", "objectid_2": 104597, "driver_searched": "1" }, "geometry": { "type": "Point", "coordinates": [ -82.563799504769676, 35.579247006288305 ] } },
{ "type": "Feature", "properties": { "objectid": 104599, "address": "1300-BLK HENDERSONVILLE RD", "YYYY_MM": "2021-03-01", "name_race_2": "B", "objectid_2": 104599, "driver_searched": "1" }, "geometry": { "type": "Point", "coordinates": [ -82.52959047349951, 35.523037302824434 ] } },
{ "type": "Feature", "properties": { "objectid": 104630, "address": "500-BLK COLLEGE ST", "YYYY_MM": "2021-03-01", "name_race_2": "B", "objectid_2": 104630, "driver_searched": "1" }, "geometry": { "type": "Point", "coordinates": [ -82.542953593532602, 35.598573384877703 ] } },
{ "type": "Feature", "properties": { "objectid": 104666, "address": "100-BLK WOODFIN ST", "YYYY_MM": "2021-03-01", "name_race_2": "W", "objectid_2": 104666, "driver_searched": "1" }, "geometry": { "type": "Point", "coordinates": [ -82.547823006523146, 35.598048601958915 ] } },
{ "type": "Feature", "properties": { "objectid": 104664, "address": "1000-BLK HAYWOOD RD", "YYYY_MM": "2021-03-01", "name_race_2": "W", "objectid_2": 104664, "driver_searched": "1" }, "geometry": { "type": "Point", "coordinates": [ -82.605231791656067, 35.582527421532795 ] } },
{ "type": "Feature", "properties": { "objectid": 104669, "address": "400-BLK SMOKEY PARK HWY", "YYYY_MM": "2021-03-01", "name_race_2": "W", "objectid_2": 104669, "driver_searched": "1" }, "geometry": { "type": "Point", "coordinates": [ -82.639989752122588, 35.558096604885485 ] } },
{ "type": "Feature", "properties": { "objectid": 104465, "address": "200-BLK HILL ST/RIVERSIDE DR", "YYYY_MM": "2021-02-01", "name_race_2": "B", "objectid_2": 104465, "driver_searched": "1" }, "geometry": { "type": "Point", "coordinates": [ -82.572361002447963, 35.596277740674068 ] } },
{ "type": "Feature", "properties": { "objectid": 104456, "address": "300-BLK RED FOX CIR", "YYYY_MM": "2021-02-01", "name_race_2": "W", "objectid_2": 104456, "driver_searched": "1" }, "geometry": { "type": "Point", "coordinates": [ -82.538409189152873, 35.491097905822997 ] } },
{ "type": "Feature", "properties": { "objectid": 104495, "address": "100-BLK I240 E", "YYYY_MM": "2021-02-01", "name_race_2": "B", "objectid_2": 104495, "driver_searched": "1" }, "geometry": { "type": "Point", "coordinates": [ -82.609729600068945, 35.557245007036023 ] } },
{ "type": "Feature", "properties": { "objectid": 104553, "address": "100-BLK I240 E", "YYYY_MM": "2021-02-01", "name_race_2": "W", "objectid_2": 104553, "driver_searched": "1" }, "geometry": { "type": "Point", "coordinates": [ -82.583778141759879, 35.57350398091841 ] } },
{ "type": "Feature", "properties": { "objectid": 104550, "address": "500-BLK DEPOT ST/SOUTHERN ST", "YYYY_MM": "2021-02-01", "name_race_2": "B", "objectid_2": 104550, "driver_searched": "1" }, "geometry": { "type": "Point", "coordinates": [ -82.562182664087615, 35.576115342256934 ] } },
{ "type": "Feature", "properties": { "objectid": 104357, "address": "100-BLK HILLIARD AVE/BILTMORE AVE", "YYYY_MM": "2021-01-01", "name_race_2": "B", "objectid_2": 104357, "driver_searched": "1" }, "geometry": { "type": "Point", "coordinates": [ -82.550525180526975, 35.591211339006797 ] } },
{ "type": "Feature", "properties": { "objectid": 104351, "address": "100-BLK CALEDONIA RD", "YYYY_MM": "2021-02-01", "name_race_2": "W", "objectid_2": 104351, "driver_searched": "1" }, "geometry": { "type": "Point", "coordinates": [ -82.543886882844774, 35.573963360086061 ] } },
{ "type": "Feature", "properties": { "objectid": 104354, "address": "100-BLK I240 E", "YYYY_MM": "2021-02-01", "name_race_2": "W", "objectid_2": 104354, "driver_searched": "1" }, "geometry": { "type": "Point", "coordinates": [ -82.538131742608741, 35.599498269604339 ] } },
{ "type": "Feature", "properties": { "objectid": 104407, "address": "100-BLK MAJESTIC AVE", "YYYY_MM": "2021-02-01", "name_race_2": "W", "objectid_2": 104407, "driver_searched": "1" }, "geometry": { "type": "Point", "coordinates": [ -82.589809248992836, 35.5792134733098 ] } },
{ "type": "Feature", "properties": { "objectid": 104404, "address": "1300-BLK PATTON AVE/JOHNSTON BLVD", "YYYY_MM": "2021-02-01", "name_race_2": "W", "objectid_2": 104404, "driver_searched": "1" }, "geometry": { "type": "Point", "coordinates": [ -82.606113100614877, 35.58292919750901 ] } },
{ "type": "Feature", "properties": { "objectid": 104405, "address": "900-BLK PATTON AVE", "YYYY_MM": "2021-02-01", "name_race_2": "W", "objectid_2": 104405, "driver_searched": "1" }, "geometry": { "type": "Point", "coordinates": [ -82.589444565188955, 35.586896801763572 ] } },
{ "type": "Feature", "properties": { "objectid": 104440, "address": "600-BLK HAYWOOD RD", "YYYY_MM": "2021-02-01", "name_race_2": "W", "objectid_2": 104440, "driver_searched": "1" }, "geometry": { "type": "Point", "coordinates": [ -82.590668445405313, 35.579295856962482 ] } },
{ "type": "Feature", "properties": { "objectid": 104434, "address": "400-BLK SMOKEY PARK HWY", "YYYY_MM": "2021-02-01", "name_race_2": "B", "objectid_2": 104434, "driver_searched": "1" }, "geometry": { "type": "Point", "coordinates": [ -82.639995055236824, 35.558089177411858 ] } },
{ "type": "Feature", "properties": { "objectid": 104428, "address": "100-BLK SWEETEN CREEK RD TO I40 E", "YYYY_MM": "2021-02-01", "name_race_2": "W", "objectid_2": 104428, "driver_searched": "1" }, "geometry": { "type": "Point", "coordinates": [ -82.520621394698011, 35.55537616866058 ] } },
{ "type": "Feature", "properties": { "objectid": 106079, "address": "600-BLK LYMAN ST", "YYYY_MM": "2021-07-01", "name_race_2": "B", "objectid_2": 106079, "driver_searched": "1" }, "geometry": { "type": "Point", "coordinates": [ -82.563830207230779, 35.572045026658223 ] } },
{ "type": "Feature", "properties": { "objectid": 106094, "address": "100-BLK RIVER HILLS RD", "YYYY_MM": "2021-07-01", "name_race_2": "W", "objectid_2": 106094, "driver_searched": "1" }, "geometry": { "type": "Point", "coordinates": [ -82.519066127528788, 35.576089131316635 ] } },
{ "type": "Feature", "properties": { "objectid": 106129, "address": "100-BLK MEDICAL PARK DR", "YYYY_MM": "2021-08-01", "name_race_2": "W", "objectid_2": 106129, "driver_searched": "1" }, "geometry": { "type": "Point", "coordinates": [ -82.52106694046148, 35.552363163423387 ] } },
{ "type": "Feature", "properties": { "objectid": 105958, "address": "100-BLK STATE ST", "YYYY_MM": "2021-07-01", "name_race_2": "W", "objectid_2": 105958, "driver_searched": "1" }, "geometry": { "type": "Point", "coordinates": [ -82.588284340033994, 35.578500030760132 ] } },
{ "type": "Feature", "properties": { "objectid": 105978, "address": "100-BLK HENDERSONVILLE RD", "YYYY_MM": "2021-07-01", "name_race_2": "W", "objectid_2": 105978, "driver_searched": "1" }, "geometry": { "type": "Point", "coordinates": [ -82.542334818305676, 35.563514886100144 ] } },
{ "type": "Feature", "properties": { "objectid": 105971, "address": "400-BLK S FRENCH BROAD AVE", "YYYY_MM": "2021-07-01", "name_race_2": "W", "objectid_2": 105971, "driver_searched": "1" }, "geometry": { "type": "Point", "coordinates": [ -82.559657148586268, 35.577851200346146 ] } },
{ "type": "Feature", "properties": { "objectid": 106009, "address": "100-BLK JOHN ST", "YYYY_MM": "2021-07-01", "name_race_2": "W", "objectid_2": 106009, "driver_searched": "1" }, "geometry": { "type": "Point", "coordinates": [ -82.562317289463522, 35.580627629145496 ] } },
{ "type": "Feature", "properties": { "objectid": 106010, "address": "400-BLK SARDIS RD", "YYYY_MM": "2021-07-01", "name_race_2": "W", "objectid_2": 106010, "driver_searched": "1" }, "geometry": { "type": "Point", "coordinates": [ -82.635431516841805, 35.543575585473917 ] } },
{ "type": "Feature", "properties": { "objectid": 106037, "address": "700-BLK HAYWOOD RD/HERRON AVE", "YYYY_MM": "2021-07-01", "name_race_2": "B", "objectid_2": 106037, "driver_searched": "1" }, "geometry": { "type": "Point", "coordinates": [ -82.594036454961042, 35.578281929942669 ] } },
{ "type": "Feature", "properties": { "objectid": 106029, "address": "400-BLK DEPOT ST", "YYYY_MM": "2021-07-01", "name_race_2": "W", "objectid_2": 106029, "driver_searched": "1" }, "geometry": { "type": "Point", "coordinates": [ -82.563798943150019, 35.579240927519173 ] } },
{ "type": "Feature", "properties": { "objectid": 106023, "address": "100-BLK I240 E", "YYYY_MM": "2021-07-01", "name_race_2": "B", "objectid_2": 106023, "driver_searched": "1" }, "geometry": { "type": "Point", "coordinates": [ -82.531712998435481, 35.597465493307972 ] } },
{ "type": "Feature", "properties": { "objectid": 106015, "address": "200-BLK S FRENCH BROAD AVE", "YYYY_MM": "2021-07-01", "name_race_2": "B", "objectid_2": 106015, "driver_searched": "1" }, "geometry": { "type": "Point", "coordinates": [ -82.559559095583268, 35.585913716809117 ] } },
{ "type": "Feature", "properties": { "objectid": 105863, "address": "400-BLK I40 E", "YYYY_MM": "2021-07-01", "name_race_2": "W", "objectid_2": 105863, "driver_searched": "1" }, "geometry": { "type": "Point", "coordinates": [ -82.638499491668711, 35.559383831827382 ] } },
{ "type": "Feature", "properties": { "objectid": 105890, "address": "700-BLK HENDERSONVILLE RD", "YYYY_MM": "2021-06-01", "name_race_2": "B", "objectid_2": 105890, "driver_searched": "1" }, "geometry": { "type": "Point", "coordinates": [ -82.534331647125271, 35.546536766646462 ] } },
{ "type": "Feature", "properties": { "objectid": 105886, "address": "200-BLK LYMAN ST", "YYYY_MM": "2021-07-01", "name_race_2": "B", "objectid_2": 105886, "driver_searched": "1" }, "geometry": { "type": "Point", "coordinates": [ -82.567179694196057, 35.584174328624059 ] } },
{ "type": "Feature", "properties": { "objectid": 105709, "address": "500-BLK SMOKEY PARK HWY", "YYYY_MM": "2021-06-01", "name_race_2": "W", "objectid_2": 105709, "driver_searched": "1" }, "geometry": { "type": "Point", "coordinates": [ -82.643379599709704, 35.553968692009676 ] } },
{ "type": "Feature", "properties": { "objectid": 105761, "address": "100-BLK EMMA RD", "YYYY_MM": "2021-06-01", "name_race_2": "W", "objectid_2": 105761, "driver_searched": "1" }, "geometry": { "type": "Point", "coordinates": [ -82.572994781268619, 35.589787823363871 ] } },
{ "type": "Feature", "properties": { "objectid": 105750, "address": "1500-BLK PATTON AVE", "YYYY_MM": "2021-06-01", "name_race_2": "W", "objectid_2": 105750, "driver_searched": "1" }, "geometry": { "type": "Point", "coordinates": [ -82.617811624431425, 35.572163094087095 ] } },
{ "type": "Feature", "properties": { "objectid": 105594, "address": "100-BLK CHOCTAW ST", "YYYY_MM": "2021-06-01", "name_race_2": "W", "objectid_2": 105594, "driver_searched": "1" }, "geometry": { "type": "Point", "coordinates": [ -82.557492506500239, 35.581060586709917 ] } },
{ "type": "Feature", "properties": { "objectid": 105627, "address": "100-BLK NEW LEICESTER HWY", "YYYY_MM": "2021-06-01", "name_race_2": "B", "objectid_2": 105627, "driver_searched": "1" }, "geometry": { "type": "Point", "coordinates": [ -82.611480450854586, 35.592696148595834 ] } },
{ "type": "Feature", "properties": { "objectid": 105626, "address": "100-BLK PALISADES CIR", "YYYY_MM": "2021-06-01", "name_race_2": "B", "objectid_2": 105626, "driver_searched": "1" }, "geometry": { "type": "Point", "coordinates": [ -82.520139291196799, 35.499668801241867 ] } },
{ "type": "Feature", "properties": { "objectid": 105624, "address": "100-BLK BARTLETT ST", "YYYY_MM": "2021-06-01", "name_race_2": "B", "objectid_2": 105624, "driver_searched": "1" }, "geometry": { "type": "Point", "coordinates": [ -82.562002273260049, 35.582404979097888 ] } },
{ "type": "Feature", "properties": { "objectid": 105694, "address": "100-BLK SHORT MICHIGAN AVE", "YYYY_MM": "2021-06-01", "name_race_2": "B", "objectid_2": 105694, "driver_searched": "1" }, "geometry": { "type": "Point", "coordinates": [ -82.578489095502292, 35.569243063187791 ] } },
{ "type": "Feature", "properties": { "objectid": 105696, "address": "100-BLK MONTFORD AVE/W CHESTNUT ST", "YYYY_MM": "2021-06-01", "name_race_2": "B", "objectid_2": 105696, "driver_searched": "1" }, "geometry": { "type": "Point", "coordinates": [ -82.562926527300277, 35.600634025589898 ] } },
{ "type": "Feature", "properties": { "objectid": 105513, "address": "500-BLK SMOKEY PARK HWY", "YYYY_MM": "2021-05-01", "name_race_2": "W", "objectid_2": 105513, "driver_searched": "1" }, "geometry": { "type": "Point", "coordinates": [ -82.643405434284929, 35.553935840674903 ] } },
{ "type": "Feature", "properties": { "objectid": 105510, "address": "100-BLK S TUNNEL RD", "YYYY_MM": "2021-05-01", "name_race_2": "B", "objectid_2": 105510, "driver_searched": "1" }, "geometry": { "type": "Point", "coordinates": [ -82.525907413066108, 35.583289575482894 ] } },
{ "type": "Feature", "properties": { "objectid": 105512, "address": "400-BLK I40 E", "YYYY_MM": "2021-05-01", "name_race_2": "B", "objectid_2": 105512, "driver_searched": "1" }, "geometry": { "type": "Point", "coordinates": [ -82.637406860843711, 35.559155912828459 ] } },
{ "type": "Feature", "properties": { "objectid": 105544, "address": "100-BLK CLINGMAN AVE", "YYYY_MM": "2021-06-01", "name_race_2": "B", "objectid_2": 105544, "driver_searched": "1" }, "geometry": { "type": "Point", "coordinates": [ -82.562323120783731, 35.591082998676583 ] } },
{ "type": "Feature", "properties": { "objectid": 105537, "address": "800-BLK HAYWOOD RD/BLUE RIDGE AVE", "YYYY_MM": "2021-06-01", "name_race_2": "W", "objectid_2": 105537, "driver_searched": "1" }, "geometry": { "type": "Point", "coordinates": [ -82.598823852225919, 35.580969548053915 ] } },
{ "type": "Feature", "properties": { "objectid": 105573, "address": "100-BLK CLINGMAN AVE", "YYYY_MM": "2021-06-01", "name_race_2": "B", "objectid_2": 105573, "driver_searched": "1" }, "geometry": { "type": "Point", "coordinates": [ -82.5626463365234, 35.590706963213776 ] } },
{ "type": "Feature", "properties": { "objectid": 105391, "address": "100-BLK S TUNNEL RD", "YYYY_MM": "2021-05-01", "name_race_2": "W", "objectid_2": 105391, "driver_searched": "1" }, "geometry": { "type": "Point", "coordinates": [ -82.525908766859928, 35.583285566320086 ] } },
{ "type": "Feature", "properties": { "objectid": 105380, "address": "300-BLK DEPOT ST", "YYYY_MM": "2021-05-01", "name_race_2": "W", "objectid_2": 105380, "driver_searched": "1" }, "geometry": { "type": "Point", "coordinates": [ -82.564265515967264, 35.581247026879844 ] } },
{ "type": "Feature", "properties": { "objectid": 105447, "address": "100-BLK HANOVER ST", "YYYY_MM": "2021-05-01", "name_race_2": "W", "objectid_2": 105447, "driver_searched": "1" }, "geometry": { "type": "Point", "coordinates": [ -82.582567876175204, 35.574798592719837 ] } },
{ "type": "Feature", "properties": { "objectid": 105430, "address": "1000-BLK PATTON AVE", "YYYY_MM": "2021-05-01", "name_race_2": "W", "objectid_2": 105430, "driver_searched": "1" }, "geometry": { "type": "Point", "coordinates": [ -82.590638024915989, 35.5880712786416 ] } },
{ "type": "Feature", "properties": { "objectid": 105467, "address": "100-BLK MONTFORD AVE", "YYYY_MM": "2021-05-01", "name_race_2": "B", "objectid_2": 105467, "driver_searched": "1" }, "geometry": { "type": "Point", "coordinates": [ -82.560737583189422, 35.598102070174178 ] } },
{ "type": "Feature", "properties": { "objectid": 105279, "address": "100-BLK WELLINGTON ST", "YYYY_MM": "2021-05-01", "name_race_2": "B", "objectid_2": 105279, "driver_searched": "1" }, "geometry": { "type": "Point", "coordinates": [ -82.575287012138162, 35.576290431249703 ] } },
{ "type": "Feature", "properties": { "objectid": 105268, "address": "100-BLK PATTON AVE", "YYYY_MM": "2021-05-01", "name_race_2": "W", "objectid_2": 105268, "driver_searched": "1" }, "geometry": { "type": "Point", "coordinates": [ -82.555957559934555, 35.594326467548157 ] } },
{ "type": "Feature", "properties": { "objectid": 105332, "address": "300-BLK MCDOWELL ST/DOCTORS DR", "YYYY_MM": "2021-05-01", "name_race_2": "B", "objectid_2": 105332, "driver_searched": "1" }, "geometry": { "type": "Point", "coordinates": [ -82.550506607760013, 35.573431071039927 ] } },
{ "type": "Feature", "properties": { "objectid": 105335, "address": "100-BLK MCDOWELL ST", "YYYY_MM": "2021-05-01", "name_race_2": "B", "objectid_2": 105335, "driver_searched": "1" }, "geometry": { "type": "Point", "coordinates": [ -82.554920262828972, 35.582783666783264 ] } },
{ "type": "Feature", "properties": { "objectid": 105329, "address": "100-BLK SCOTT ST", "YYYY_MM": "2021-05-01", "name_race_2": "B", "objectid_2": 105329, "driver_searched": "1" }, "geometry": { "type": "Point", "coordinates": [ -82.5589065023497, 35.5754433423471 ] } },
{ "type": "Feature", "properties": { "objectid": 105352, "address": "800-BLK FAIRVIEW RD", "YYYY_MM": "2021-04-01", "name_race_2": "B", "objectid_2": 105352, "driver_searched": "1" }, "geometry": { "type": "Point", "coordinates": [ -82.506144485669637, 35.56902876296828 ] } },
{ "type": "Feature", "properties": { "objectid": 106992, "address": "100-BLK I240 W", "YYYY_MM": "2021-10-01", "name_race_2": "W", "objectid_2": 106992, "driver_searched": "1" }, "geometry": { "type": "Point", "coordinates": [ -82.542249257770195, 35.600741463226001 ] } },
{ "type": "Feature", "properties": { "objectid": 106986, "address": "400-BLK SWANNANOA RIVER RD/GOVERNORS VIEW RD", "YYYY_MM": "2021-10-01", "name_race_2": "W", "objectid_2": 106986, "driver_searched": "1" }, "geometry": { "type": "Point", "coordinates": [ -82.51428032714702, 35.579617281754615 ] } },
{ "type": "Feature", "properties": { "objectid": 106987, "address": "500-BLK SHORT MCDOWELL ST", "YYYY_MM": "2021-10-01", "name_race_2": "B", "objectid_2": 106987, "driver_searched": "1" }, "geometry": { "type": "Point", "coordinates": [ -82.548619121845249, 35.568664789422122 ] } },
{ "type": "Feature", "properties": { "objectid": 107027, "address": "200-BLK HAYWOOD ST", "YYYY_MM": "2021-10-01", "name_race_2": "B", "objectid_2": 107027, "driver_searched": "1" }, "geometry": { "type": "Point", "coordinates": [ -82.560438017287055, 35.595563349894547 ] } },
{ "type": "Feature", "properties": { "objectid": 107052, "address": "100-BLK AIRPORT RD", "YYYY_MM": "2021-03-01", "name_race_2": "W", "objectid_2": 107052, "driver_searched": "1" }, "geometry": { "type": "Point", "coordinates": [ -82.523751388731768, 35.458034398373734 ] } },
{ "type": "Feature", "properties": { "objectid": 106847, "address": "700-BLK FAIRVIEW RD", "YYYY_MM": "2021-09-01", "name_race_2": "B", "objectid_2": 106847, "driver_searched": "1" }, "geometry": { "type": "Point", "coordinates": [ -82.511907136268931, 35.56485323885012 ] } },
{ "type": "Feature", "properties": { "objectid": 106884, "address": "200-BLK STATE ST", "YYYY_MM": "2021-09-01", "name_race_2": "B", "objectid_2": 106884, "driver_searched": "1" }, "geometry": { "type": "Point", "coordinates": [ -82.582806883854786, 35.570981047904247 ] } },
{ "type": "Feature", "properties": { "objectid": 106920, "address": "200-BLK DEAVERVIEW RD", "YYYY_MM": "2021-10-01", "name_race_2": "W", "objectid_2": 106920, "driver_searched": "1" }, "geometry": { "type": "Point", "coordinates": [ -82.617716067148308, 35.582202814877903 ] } },
{ "type": "Feature", "properties": { "objectid": 106921, "address": "200-BLK DEAVERVIEW RD", "YYYY_MM": "2021-10-01", "name_race_2": "B", "objectid_2": 106921, "driver_searched": "1" }, "geometry": { "type": "Point", "coordinates": [ -82.617724329605096, 35.582196317210062 ] } },
{ "type": "Feature", "properties": { "objectid": 106943, "address": "900-BLK PATTON AVE", "YYYY_MM": "2021-10-01", "name_race_2": "W", "objectid_2": 106943, "driver_searched": "1" }, "geometry": { "type": "Point", "coordinates": [ -82.589444565188955, 35.586861363196633 ] } },
{ "type": "Feature", "properties": { "objectid": 106934, "address": "100-BLK I240 W", "YYYY_MM": "2021-10-01", "name_race_2": "B", "objectid_2": 106934, "driver_searched": "1" }, "geometry": { "type": "Point", "coordinates": [ -82.58046847250732, 35.587837851362238 ] } },
{ "type": "Feature", "properties": { "objectid": 106747, "address": "200-BLK LYMAN ST", "YYYY_MM": "2021-09-01", "name_race_2": "W", "objectid_2": 106747, "driver_searched": "1" }, "geometry": { "type": "Point", "coordinates": [ -82.567194216490563, 35.581983652257733 ] } },
{ "type": "Feature", "properties": { "objectid": 106791, "address": "400-BLK DEAVERVIEW RD", "YYYY_MM": "2021-09-01", "name_race_2": "B", "objectid_2": 106791, "driver_searched": "1" }, "geometry": { "type": "Point", "coordinates": [ -82.625727037676128, 35.582290067109099 ] } },
{ "type": "Feature", "properties": { "objectid": 106792, "address": "100-BLK RIVERVIEW DR", "YYYY_MM": "2021-09-01", "name_race_2": "W", "objectid_2": 106792, "driver_searched": "1" }, "geometry": { "type": "Point", "coordinates": [ -82.569733214442635, 35.584416325349281 ] } },
{ "type": "Feature", "properties": { "objectid": 106784, "address": "100-BLK SMOKEY PARK HWY", "YYYY_MM": "2021-09-01", "name_race_2": "W", "objectid_2": 106784, "driver_searched": "1" }, "geometry": { "type": "Point", "coordinates": [ -82.630366202816091, 35.56698563281001 ] } },
{ "type": "Feature", "properties": { "objectid": 106785, "address": "200-BLK SMOKEY PARK HWY", "YYYY_MM": "2021-09-01", "name_race_2": "W", "objectid_2": 106785, "driver_searched": "1" }, "geometry": { "type": "Point", "coordinates": [ -82.629700640699269, 35.563097224373834 ] } },
{ "type": "Feature", "properties": { "objectid": 106805, "address": "3000-BLK SWEETEN CREEK RD", "YYYY_MM": "2021-09-01", "name_race_2": "W", "objectid_2": 106805, "driver_searched": "1" }, "geometry": { "type": "Point", "coordinates": [ -82.517506118781625, 35.500199242040999 ] } },
{ "type": "Feature", "properties": { "objectid": 106806, "address": "800-BLK TUNNEL RD", "YYYY_MM": "2021-09-01", "name_race_2": "W", "objectid_2": 106806, "driver_searched": "1" }, "geometry": { "type": "Point", "coordinates": [ -82.504988894293888, 35.586605116941655 ] } },
{ "type": "Feature", "properties": { "objectid": 106807, "address": "100-BLK I240 E", "YYYY_MM": "2021-09-01", "name_race_2": "W", "objectid_2": 106807, "driver_searched": "1" }, "geometry": { "type": "Point", "coordinates": [ -82.538102629147588, 35.599460328203079 ] } },
{ "type": "Feature", "properties": { "objectid": 106800, "address": "1000-BLK W CHAPEL RD", "YYYY_MM": "2021-09-01", "name_race_2": "B", "objectid_2": 106800, "driver_searched": "1" }, "geometry": { "type": "Point", "coordinates": [ -82.525902771551245, 35.549594234763802 ] } },
{ "type": "Feature", "properties": { "objectid": 106679, "address": "200-BLK DEAVERVIEW RD/N BEAR CREEK RD", "YYYY_MM": "2021-08-01", "name_race_2": "B", "objectid_2": 106679, "driver_searched": "1" }, "geometry": { "type": "Point", "coordinates": [ -82.616204546194737, 35.580454259142478 ] } },
{ "type": "Feature", "properties": { "objectid": 106318, "address": "100-BLK HENDERSONVILLE RD", "YYYY_MM": "2021-08-01", "name_race_2": "B", "objectid_2": 106318, "driver_searched": "1" }, "geometry": { "type": "Point", "coordinates": [ -82.544288684239547, 35.567142372355924 ] } },
{ "type": "Feature", "properties": { "objectid": 106305, "address": "1300-BLK PATTON AVE", "YYYY_MM": "2021-08-01", "name_race_2": "B", "objectid_2": 106305, "driver_searched": "1" }, "geometry": { "type": "Point", "coordinates": [ -82.605289133695038, 35.583665742395887 ] } },
{ "type": "Feature", "properties": { "objectid": 106354, "address": "100-BLK HANOVER ST", "YYYY_MM": "2021-08-01", "name_race_2": "B", "objectid_2": 106354, "driver_searched": "1" }, "geometry": { "type": "Point", "coordinates": [ -82.582596125634481, 35.574739932113204 ] } },
{ "type": "Feature", "properties": { "objectid": 106358, "address": "100-BLK SMOKEY PARK HWY", "YYYY_MM": "2021-08-01", "name_race_2": "W", "objectid_2": 106358, "driver_searched": "1" }, "geometry": { "type": "Point", "coordinates": [ -82.62676614503485, 35.570850745602201 ] } },
{ "type": "Feature", "properties": { "objectid": 106146, "address": "1400-BLK PATTON AVE/MIMOSA DR", "YYYY_MM": "2021-08-01", "name_race_2": "B", "objectid_2": 106146, "driver_searched": "1" }, "geometry": { "type": "Point", "coordinates": [ -82.611123049641151, 35.577296371063639 ] } },
{ "type": "Feature", "properties": { "objectid": 106239, "address": "200-BLK SPRUCE HILL CT", "YYYY_MM": "2021-08-01", "name_race_2": "B", "objectid_2": 106239, "driver_searched": "1" }, "geometry": { "type": "Point", "coordinates": [ -82.516003683173949, 35.596070227187397 ] } },
{ "type": "Feature", "properties": { "objectid": 107654, "address": "400-BLK DEPOT ST", "YYYY_MM": "2021-12-01", "name_race_2": "W", "objectid_2": 107654, "driver_searched": "1" }, "geometry": { "type": "Point", "coordinates": [ -82.563786827033269, 35.579202310663121 ] } },
{ "type": "Feature", "properties": { "objectid": 107658, "address": "100-BLK MICHIGAN AVE", "YYYY_MM": "2021-12-01", "name_race_2": "B", "objectid_2": 107658, "driver_searched": "1" }, "geometry": { "type": "Point", "coordinates": [ -82.579490331124362, 35.577090714401386 ] } },
{ "type": "Feature", "properties": { "objectid": 107553, "address": "400-BLK DEPOT ST", "YYYY_MM": "2021-12-01", "name_race_2": "B", "objectid_2": 107553, "driver_searched": "1" }, "geometry": { "type": "Point", "coordinates": [ -82.563782746846385, 35.579195268565876 ] } },
{ "type": "Feature", "properties": { "objectid": 107611, "address": "1000-BLK HAYWOOD RD", "YYYY_MM": "2021-12-01", "name_race_2": "W", "objectid_2": 107611, "driver_searched": "1" }, "geometry": { "type": "Point", "coordinates": [ -82.605233287580447, 35.582496018215558 ] } },
{ "type": "Feature", "properties": { "objectid": 107432, "address": "100-BLK RIVERSIDE DR TO I26 E", "YYYY_MM": "2021-12-01", "name_race_2": "B", "objectid_2": 107432, "driver_searched": "1" }, "geometry": { "type": "Point", "coordinates": [ -82.570737113183995, 35.5959928691952 ] } },
{ "type": "Feature", "properties": { "objectid": 107424, "address": "600-BLK PATTON AVE", "YYYY_MM": "2021-11-01", "name_race_2": "W", "objectid_2": 107424, "driver_searched": "1" }, "geometry": { "type": "Point", "coordinates": [ -82.580637334232136, 35.587972175800935 ] } },
{ "type": "Feature", "properties": { "objectid": 107415, "address": "300-BLK NEW LEICESTER HWY", "YYYY_MM": "2021-12-01", "name_race_2": "W", "objectid_2": 107415, "driver_searched": "1" }, "geometry": { "type": "Point", "coordinates": [ -82.622881017317752, 35.600634066254848 ] } },
{ "type": "Feature", "properties": { "objectid": 107416, "address": "200-BLK OLD COUNTY HOME RD", "YYYY_MM": "2021-12-01", "name_race_2": "W", "objectid_2": 107416, "driver_searched": "1" }, "geometry": { "type": "Point", "coordinates": [ -82.620261772723197, 35.596651356883065 ] } },
{ "type": "Feature", "properties": { "objectid": 107408, "address": "600-BLK HENDERSONVILLE RD", "YYYY_MM": "2021-12-01", "name_race_2": "B", "objectid_2": 107408, "driver_searched": "1" }, "geometry": { "type": "Point", "coordinates": [ -82.534978360844278, 35.549142455862452 ] } },
{ "type": "Feature", "properties": { "objectid": 107435, "address": "100-BLK I240 E", "YYYY_MM": "2021-12-01", "name_race_2": "B", "objectid_2": 107435, "driver_searched": "1" }, "geometry": { "type": "Point", "coordinates": [ -82.50780313754835, 35.568135585875041 ] } },
{ "type": "Feature", "properties": { "objectid": 107480, "address": "100-BLK HENDERSONVILLE RD", "YYYY_MM": "2021-12-01", "name_race_2": "W", "objectid_2": 107480, "driver_searched": "1" }, "geometry": { "type": "Point", "coordinates": [ -82.543523042993158, 35.566323200600834 ] } },
{ "type": "Feature", "properties": { "objectid": 107467, "address": "100-BLK PINEY PARK RD", "YYYY_MM": "2021-12-01", "name_race_2": "W", "objectid_2": 107467, "driver_searched": "1" }, "geometry": { "type": "Point", "coordinates": [ -82.618618803366601, 35.574770107571503 ] } },
{ "type": "Feature", "properties": { "objectid": 107350, "address": "100-BLK KIMBERLY AVE", "YYYY_MM": "2021-11-01", "name_race_2": "W", "objectid_2": 107350, "driver_searched": "1" }, "geometry": { "type": "Point", "coordinates": [ -82.54970195282722, 35.617675380861598 ] } },
{ "type": "Feature", "properties": { "objectid": 107359, "address": "300-BLK MCDOWELL ST", "YYYY_MM": "2021-11-01", "name_race_2": "B", "objectid_2": 107359, "driver_searched": "1" }, "geometry": { "type": "Point", "coordinates": [ -82.55069523123413, 35.574444758768678 ] } },
{ "type": "Feature", "properties": { "objectid": 107401, "address": "600-BLK LYMAN ST", "YYYY_MM": "2021-12-01", "name_race_2": "B", "objectid_2": 107401, "driver_searched": "1" }, "geometry": { "type": "Point", "coordinates": [ -82.563699890265028, 35.56877586819801 ] } },
{ "type": "Feature", "properties": { "objectid": 107383, "address": "100-BLK TUNNEL RD", "YYYY_MM": "2021-12-01", "name_race_2": "W", "objectid_2": 107383, "driver_searched": "1" }, "geometry": { "type": "Point", "coordinates": [ -82.53046164912476, 35.588760863543847 ] } },
{ "type": "Feature", "properties": { "objectid": 107193, "address": "100-BLK W CHAPEL CIR/BRAD ST", "YYYY_MM": "2021-10-01", "name_race_2": "B", "objectid_2": 107193, "driver_searched": "1" }, "geometry": { "type": "Point", "coordinates": [ -82.528823896047726, 35.552081772195301 ] } },
{ "type": "Feature", "properties": { "objectid": 107196, "address": "100-BLK HIBERNIA ST/CAMBY ST", "YYYY_MM": "2021-10-01", "name_race_2": "B", "objectid_2": 107196, "driver_searched": "1" }, "geometry": { "type": "Point", "coordinates": [ -82.558956262911991, 35.575797050934099 ] } },
{ "type": "Feature", "properties": { "objectid": 107195, "address": "200-BLK HANOVER ST/GRANADA ST", "YYYY_MM": "2021-10-01", "name_race_2": "B", "objectid_2": 107195, "driver_searched": "1" }, "geometry": { "type": "Point", "coordinates": [ -82.582939331005306, 35.569832247486623 ] } },
{ "type": "Feature", "properties": { "objectid": 107264, "address": "100-BLK I240 W", "YYYY_MM": "2021-11-01", "name_race_2": "W", "objectid_2": 107264, "driver_searched": "1" }, "geometry": { "type": "Point", "coordinates": [ -82.575783380357535, 35.590345682587454 ] } },
{ "type": "Feature", "properties": { "objectid": 107292, "address": "100-BLK MCCORMICK PL", "YYYY_MM": "2021-11-01", "name_race_2": "B", "objectid_2": 107292, "driver_searched": "1" }, "geometry": { "type": "Point", "coordinates": [ -82.551014345673451, 35.587432966090638 ] } },
{ "type": "Feature", "properties": { "objectid": 107297, "address": "400-BLK BROOKLYN RD", "YYYY_MM": "2021-11-01", "name_race_2": "B", "objectid_2": 107297, "driver_searched": "1" }, "geometry": { "type": "Point", "coordinates": [ -82.529627089759217, 35.5472193629667 ] } },
{ "type": "Feature", "properties": { "objectid": 107284, "address": "100-BLK BARTLETT ST", "YYYY_MM": "2021-11-01", "name_race_2": "B", "objectid_2": 107284, "driver_searched": "1" }, "geometry": { "type": "Point", "coordinates": [ -82.564271881438557, 35.581218336968483 ] } },
{ "type": "Feature", "properties": { "objectid": 107279, "address": "100-BLK I240 W", "YYYY_MM": "2021-11-01", "name_race_2": "B", "objectid_2": 107279, "driver_searched": "1" }, "geometry": { "type": "Point", "coordinates": [ -82.58035024661875, 35.58782085304567 ] } },
{ "type": "Feature", "properties": { "objectid": 107095, "address": "200-BLK STATE ST", "YYYY_MM": "2021-10-01", "name_race_2": "W", "objectid_2": 107095, "driver_searched": "1" }, "geometry": { "type": "Point", "coordinates": [ -82.582811540466963, 35.570966825779358 ] } },
{ "type": "Feature", "properties": { "objectid": 107130, "address": "100-BLK JOHNSTON BLVD", "YYYY_MM": "2021-10-01", "name_race_2": "B", "objectid_2": 107130, "driver_searched": "1" }, "geometry": { "type": "Point", "coordinates": [ -82.60735037774073, 35.584311794150807 ] } },
{ "type": "Feature", "properties": { "objectid": 107152, "address": "100-BLK SWEETEN CREEK RD", "YYYY_MM": "2021-11-01", "name_race_2": "W", "objectid_2": 107152, "driver_searched": "1" }, "geometry": { "type": "Point", "coordinates": [ -82.539996671816908, 35.566363539854613 ] } }
]
}
